[
  {
    "regionName": "North-Central",
    "metadata": {
      "coordinates": {
        "latitude": 9.0354,
        "longitude": 7.4898
      }
    },
    "size": "35000 square Km",
    "population": 29252408
  },
  {
    "regionName": "North-East",
    "metadata": {
      "coordinates": {
        "latitude": 11.8299,
        "longitude": 13.1507
      }
    },
    "size": "78000 square Km",
    "population": 26263866
  },
  {
    "regionName": "North-West",
    "metadata": {
      "coordinates": {
        "latitude": 12.2189,
        "longitude": 5.3107
      }
    },
    "size": "216000 square Km",
    "population": 48942307
  },
  {
    "regionName": "South-East",
    "metadata": {
      "coordinates": {
        "latitude": 5.9789,
        "longitude": 7.3986
      }
    },
    "size": "21000 square Km",
    "population": 21955414
  },
  {
    "regionName": "South-South",
    "metadata": {
      "coordinates": {
        "latitude": 4.8952,
        "longitude": 8.3363
      }
    },
    "size": "95000 square Km",
    "population": 28829288
  },
  {
    "regionName": "South-West",
    "metadata": {
      "coordinates": {
        "latitude": 6.5244,
        "longitude": 3.3792
      }
    },
    "size": "63000 square Km",
    "population": 38257260
  }
]